Timestamp,accelX,accelY,accelZ,gyroX(rad/s),gyroY(rad/s),gyroZ(rad/s),Roll(rads),Pitch(rads),Yaw(rads),Lat,Long,Speed(mph),TrueHeading,Alt(feet),ActivityType,ActivityConfidence,Pressure(kilopascals),RelativeAltitude(meters),magX(µT),magY(µT),magZ(µT),calMagX,calMagY,calMagZ
01-Nov-2017 17:29:07.081,-0.0185,-0.2017,-0.9492,-0.1521,-0.1844,0.2443,0,0,0,40.11034,-88.230768,-2.2369,0,742.826599,Unknown,High,0,0,-18.6769,-41.9211,-579.1357,0,0,0
01-Nov-2017 17:29:08.085,-0.0661,-0.3058,-0.9383,0.7627,0.2692,-0.4462,-0.1245,0.2486,2.8711,40.110338,-88.230769,-2.2369,102.0368,742.796936,Unknown,High,98.549,0,-24.2196,-43.3198,-576.4908,-19.7402,-17.8539,-27.1616
01-Nov-2017 17:29:09.087,-0.0894,-0.2014,-1.0071,-0.1275,-0.7089,0.5079,-0.0652,0.129,2.9894,40.110338,-88.230769,-2.2369,95.5361,742.796936,Unknown,High,98.5505,-0.1268,-23.9304,-37.3968,-579.6495,-18.7898,-12.4321,-30.2734
01-Nov-2017 17:29:10.261,-0.4954,-0.05,-0.7231,2.2281,-2.6135,-1.1568,-0.0652,0.129,2.9894,40.110249,-88.230679,1.0737,48.9331,621.126709,Unknown,High,98.552,-0.2537,-42.5604,-10.5387,-556.2697,-18.7898,-12.4321,-30.2734
01-Nov-2017 17:29:11.118,-1.708,0.3526,-0.2104,-1.7126,-3.0282,0.6524,-0.0652,0.129,2.9894,40.110131,-88.230655,1.0737,53.7415,781.227051,Unknown,High,98.554,-0.4281,-42.2716,-19.3504,-532.5228,-18.7898,-12.4321,-30.2734
01-Nov-2017 17:29:12.107,-0.3105,0.4701,0.4437,1.721,-1.468,0.6595,-0.0652,0.129,2.9894,40.110245,-88.230726,0.3803,94.8758,766.409424,Unknown,High,98.5612,-1.0358,-26.0621,-1.5603,-525.1486,-18.7898,-12.4321,-30.2734
01-Nov-2017 17:29:13.098,-0.3348,0.945,0.2875,-0.8093,0.303,-0.3703,-0.0652,0.129,2.9894,40.11023,-88.230894,1.0961,134.962,736.260681,Unknown,High,98.5615,-1.0649,-9.2791,8.942,-529.8619,-18.7898,-12.4321,-30.2734
01-Nov-2017 17:29:14.100,-0.4628,0.8214,-0.1087,-0.1247,0.7468,-0.0102,-0.0652,0.129,2.9894,40.110223,-88.230876,0.9619,143.3561,738.750793,Unknown,High,98.5625,-1.1494,-17.2377,9.5365,-533.1783,-18.7898,-12.4321,-30.2734
01-Nov-2017 17:29:15.101,-0.2455,1.0162,0.2633,0.6942,0.1217,0.1107,-0.0652,0.129,2.9894,40.110216,-88.23084,1.7224,159.8421,740.927856,Unknown,High,98.5633,-1.2181,-19.7027,7.4184,-529.5867,-18.7898,-12.4321,-30.2734
01-Nov-2017 17:29:16.104,-0.3648,0.9306,0.0334,0.0524,0.0181,-0.0143,-0.0652,0.129,2.9894,40.110166,-88.230837,1.7224,157.7679,746.903809,Unknown,High,98.563,-1.1891,-20.761,8.9038,-532.6376,-18.7898,-12.4321,-30.2734
01-Nov-2017 17:29:17.105,-0.3638,0.9337,0.0389,-0.0013,0.0625,0.0172,-0.0652,0.129,2.9894,40.110165,-88.230837,2.8409,156.7585,756.628418,Unknown,High,98.563,-1.1917,-20.1612,8.9094,-532.7165,-18.7898,-12.4321,-30.2734
01-Nov-2017 17:29:18.107,-0.3424,0.9349,0.0455,-0.047,0.0956,0.0082,-0.0652,0.129,2.9894,40.110143,-88.230844,3.2436,156.7585,761.573486,Unknown,High,98.563,-1.1891,-20.4601,8.9072,-532.2646,-18.7898,-12.4321,-30.2734
01-Nov-2017 17:29:19.108,0.1665,1.0019,-0.0796,0.6827,-1.3656,0.0268,-0.0652,0.129,2.9894,40.110199,-88.230884,1.2079,148.0598,771.894409,Unknown,High,98.563,-1.1917,-14.615,11.5106,-533.6977,-18.7898,-12.4321,-30.2734
01-Nov-2017 17:29:20.110,-1.4906,-0.0516,-0.1269,-2.9813,3.8829,-1.035,-0.0652,0.129,2.9894,40.11022,-88.2309,1.7001,174.6778,783.592407,Unknown,High,98.5626,-1.1573,-39.9726,-4.5647,-539.9427,-18.7898,-12.4321,-30.2734
01-Nov-2017 17:29:21.112,-1.9108,0.0743,-0.3906,3.4572,-3.6155,8.0996,-0.0652,0.129,2.9894,40.11011,-88.230873,1.7001,92.7011,775.849243,Unknown,High,98.5626,-1.1573,-44.75,-30.4043,-536.0839,-18.7898,-12.4321,-30.2734
01-Nov-2017 17:29:22.117,-0.2941,0.6742,-0.1834,0.2598,-1.38,-0.8402,-0.0652,0.129,2.9894,40.110087,-88.230862,4.7647,169.6902,780.013184,Unknown,High,98.5602,-0.9539,-19.8676,10.4088,-534.9512,-18.7898,-12.4321,-30.2734
01-Nov-2017 17:29:23.116,-0.4064,0.9044,0.0539,-0.062,0.1709,0.0179,-0.0652,0.129,2.9894,40.110087,-88.230862,0,171.0228,776.729126,Unknown,High,98.5602,-0.9512,-20.011,9.136,-532.5649,-18.7898,-12.4321,-30.2734
01-Nov-2017 17:29:24.118,-0.4152,0.8907,0.0729,0.0947,0.1875,-0.0859,-0.0652,0.129,2.9894,40.11008,-88.230869,0.5145,176.7428,775.353027,Walking,Med,98.5592,-0.8667,-21.9618,8.5168,-533.0093,-18.7898,-12.4321,-30.2734
01-Nov-2017 17:29:25.119,-0.2478,0.5212,0.2969,0.9106,-0.9478,-1.1902,-0.0652,0.129,2.9894,40.11008,-88.230869,0,173.9908,760.960938,Walking,Med,98.5592,-0.8667,-25.2253,-2.2955,-520.5875,-18.7898,-12.4321,-30.2734
01-Nov-2017 17:29:26.123,-0.5521,0.9426,0.2359,-1.3823,-1.1617,-1.1307,-0.0652,0.129,2.9894,40.11009,-88.230866,0.5145,124.1762,762.309387,Walking,Med,98.5592,-0.8667,-8.0745,11.357,-527.5169,-18.7898,-12.4321,-30.2734
01-Nov-2017 17:29:27.128,-0.6465,0.5855,0.6786,-1.7536,-0.5512,-2.0521,-0.0652,0.129,2.9894,40.110096,-88.230853,0.3579,117.1969,753.51416,Walking,Med,98.5623,-1.1283,-16.467,6.1802,-525.5719,-18.7898,-12.4321,-30.2734
01-Nov-2017 17:29:28.125,-0.9143,2.4945,-0.8243,-1.597,6.2366,-1.6523,-0.0652,0.129,2.9894,40.110097,-88.230835,2.1027,149.9856,754.623535,Walking,Med,98.5623,-1.1283,-18.4814,5.1171,-521.5211,-18.7898,-12.4321,-30.2734
01-Nov-2017 17:29:29.126,0.1976,0.2206,0.192,0.9339,0.5352,1.3128,-0.0652,0.129,2.9894,40.110091,-88.230805,5.6595,143.9763,756.806824,Walking,Med,98.5506,-0.14,-0.6097,16.7334,-540.5536,-18.7898,-12.4321,-30.2734
01-Nov-2017 17:29:30.129,-1.0901,0.986,0.2002,-2.2968,6.2105,-2.6112,-0.0652,0.129,2.9894,40.110091,-88.230767,6.42,127.9791,754.318359,Walking,Med,98.5475,0.1268,-3.2488,8.7925,-517.7528,-18.7898,-12.4321,-30.2734
01-Nov-2017 17:29:31.134,0.1113,1.6139,-0.4995,-0.0538,1.6471,-1.8136,-0.0652,0.129,2.9894,40.110098,-88.230724,6.42,143.9193,752.812073,Walking,Med,98.5475,0.1268,-16.994,10.0751,-525.5987,-18.7898,-12.4321,-30.2734
01-Nov-2017 17:29:32.132,0.3281,0.5507,0.0922,1.9183,-0.7699,0.8876,-0.0652,0.129,2.9894,40.110112,-88.230682,6.42,104.9124,757.22113,Walking,Med,98.5503,-0.1136,12.3524,7.6211,-547.4927,-18.7898,-12.4321,-30.2734
01-Nov-2017 17:29:33.134,0.0605,1.7884,0.5255,-1.8246,1.5584,-1.9441,-0.0652,0.129,2.9894,40.110137,-88.230642,6.7779,94.0408,755.728088,Walking,Med,98.5518,-0.2352,8.0765,19.3584,-545.5299,-18.7898,-12.4321,-30.2734
01-Nov-2017 17:29:34.135,-0.101,0.3874,0.5778,0.4338,-0.4084,0.5919,-0.0652,0.129,2.9894,40.110168,-88.2306,7.3819,78.8547,756.046448,Walking,Med,98.5562,-0.6104,9.8959,20.2876,-537.5811,-18.7898,-12.4321,-30.2734
01-Nov-2017 17:29:35.137,-0.3532,1.1149,0.2887,2.9106,-2.32,1.8213,-0.0652,0.129,2.9894,40.110203,-88.230569,7.3819,55.1105,753.378784,Walking,High,98.5614,-1.0517,9.4824,14.934,-554.0649,-18.7898,-12.4321,-30.2734
01-Nov-2017 17:29:36.139,-0.6132,1.5564,-0.0149,-2.8016,-1.466,-1.6045,-0.0652,0.129,2.9894,40.110242,-88.230548,6.599,35.7238,753.082642,Walking,High,98.5614,-1.0517,-2.7458,13.8405,-555.573,-18.7898,-12.4321,-30.2734
01-Nov-2017 17:29:37.142,-0.0758,-0.2719,-0.0196,1.3917,0.8715,0.8878,-0.0652,0.129,2.9894,40.110287,-88.230534,6.5766,46.6255,751.525879,Walking,High,98.5602,-0.9539,-7.6295,18.3653,-558.1142,-18.7898,-12.4321,-30.2734
01-Nov-2017 17:29:38.143,-0.2072,-0.5287,-0.0242,1.0558,1.6914,-0.484,-0.0652,0.129,2.9894,40.110328,-88.23053,6.5766,59.0379,750.132568,Walking,High,98.5602,-0.9539,-5.2176,11.7934,-554.6805,-18.7898,-12.4321,-30.2734
01-Nov-2017 17:29:39.151,-0.3747,0.3736,0.0434,-0.795,0.181,0.4619,-0.0652,0.129,2.9894,40.110328,-88.23053,6.5766,52.1617,750.132568,Walking,High,98.5611,-1.0305,12.0099,4.4414,-565.152,-18.7898,-12.4321,-30.2734
01-Nov-2017 17:29:40.147,-0.2004,1.4281,0.3849,-1.7532,0.7843,-2.5385,-0.0652,0.129,2.9894,40.110407,-88.230527,6.6213,47.3065,748.303162,Walking,High,98.5623,-1.1362,-10.0805,16.856,-548.8157,-18.7898,-12.4321,-30.2734
01-Nov-2017 17:29:41.148,-0.3248,0.5854,-0.1242,-0.594,-0.0494,-0.2865,-0.0652,0.129,2.9894,40.110449,-88.230527,6.6213,49.3665,742.764343,Walking,High,98.5623,-1.1362,-7.8496,12.8145,-557.2767,-18.7898,-12.4321,-30.2734
01-Nov-2017 17:29:42.150,-0.3945,0.8604,-0.0516,3.3819,-0.0752,2.9581,-0.0652,0.129,2.9894,40.11049,-88.230521,6.5319,50.7185,741.943909,Walking,High,98.5624,-1.1388,-0.4449,13.0228,-565.3474,-18.7898,-12.4321,-30.2734
01-Nov-2017 17:29:43.152,-0.4962,1.6259,0.1481,-2.3762,-2.1881,-2.2384,-0.0652,0.129,2.9894,40.110531,-88.230511,7.1358,41.3525,741.914246,Walking,High,98.5624,-1.1441,4.5783,15.5451,-565.576,-18.7898,-12.4321,-30.2734
01-Nov-2017 17:29:44.153,-0.1212,-0.2917,-0.0275,1.2905,0.3141,0.7273,-0.0652,0.129,2.9894,40.110568,-88.230503,6.174,39.6397,742.404053,Walking,High,98.5645,-1.3185,-9.5697,21.2036,-553.644,-18.7898,-12.4321,-30.2734
01-Nov-2017 17:29:45.155,0.3037,0.064,-0.3754,1.196,-0.9413,0.0338,-0.0652,0.129,2.9894,40.110599,-88.230499,6.174,39.1803,740.95929,Walking,High,98.5653,-1.3846,-5.3743,22.7412,-555.1536,-18.7898,-12.4321,-30.2734
01-Nov-2017 17:29:46.157,-0.1411,0.3914,0.4253,0.3434,0.6667,1.6979,-0.0652,0.129,2.9894,40.11063,-88.230501,6.174,34.4137,740.257446,Walking,High,98.5662,-1.4665,12.2855,8.9307,-574.0272,-18.7898,-12.4321,-30.2734
01-Nov-2017 17:29:47.159,0.136,1.517,0.3121,-2.3972,3.1837,-1.4846,-0.0652,0.129,2.9894,40.110665,-88.230506,6.5766,41.5324,740.602661,Walking,High,98.5666,-1.4982,6.705,19.6326,-554.0678,-18.7898,-12.4321,-30.2734
01-Nov-2017 17:29:48.161,-0.3927,0.5909,-0.1324,0.5488,0.3302,1.3687,-0.0652,0.129,2.9894,40.110699,-88.230513,6.8003,44.1379,737.281189,Walking,High,98.5667,-1.5035,0.6442,18.008,-548.7222,-18.7898,-12.4321,-30.2734
01-Nov-2017 17:29:49.163,-0.5089,3.0667,0.1237,3.39,0.3461,2.7203,-0.0652,0.129,2.9894,40.110728,-88.230517,5.1226,47.96,737.356873,Walking,High,98.5678,-1.596,1.2153,20.772,-559.7191,-18.7898,-12.4321,-30.2734
01-Nov-2017 17:29:50.164,-0.1845,0.7302,-0.2876,-2.4908,0.2732,-1.7096,-0.0652,0.129,2.9894,40.110759,-88.230516,7.3372,40.274,737.664246,Walking,High,98.5671,-1.5431,13.4263,15.8531,-566.305,-18.7898,-12.4321,-30.2734
01-Nov-2017 17:29:51.166,-0.0606,0.6614,0.4658,-0.0347,-0.5759,-0.8085,-0.0652,0.129,2.9894,40.110789,-88.230517,5.4358,45.5031,738.366516,Walking,High,98.5673,-1.5616,-0.7126,25.3433,-549.979,-18.7898,-12.4321,-30.2734
01-Nov-2017 17:29:52.168,0.3357,1.3267,0.6635,-2.9691,-2.452,-0.258,-0.0652,0.129,2.9894,40.110817,-88.230516,5.8608,47.8668,740.518127,Walking,High,98.5673,-1.5616,7.4438,28.5606,-556.745,-18.7898,-12.4321,-30.2734
01-Nov-2017 17:29:53.170,0.0624,1.2978,0.2386,1.8229,-2.1289,2.5306,-0.0652,0.129,2.9894,40.110841,-88.230515,5.4358,44.305,740.598267,Walking,High,98.5675,-1.5775,30.4175,23.7216,-578.2499,-18.7898,-12.4321,-30.2734
01-Nov-2017 17:29:54.172,-0.0008,2.6827,0.2507,-3.1369,-1.9618,-2.5763,-0.0652,0.129,2.9894,40.11087,-88.230512,7.5161,38.0916,739.890991,Walking,High,98.5689,-1.6937,-0.3439,52.6512,-547.0424,-18.7898,-12.4321,-30.2734
01-Nov-2017 17:29:55.173,-0.1735,-0.3787,-0.0798,0.8678,0.6298,2.0144,-0.0652,0.129,2.9894,40.110899,-88.230509,7.5161,43.0039,740.604248,Walking,High,98.5675,-1.5775,-17.7186,35.6212,-540.3002,-18.7898,-12.4321,-30.2734
01-Nov-2017 17:29:56.175,-0.2705,0.413,-0.1018,1.2577,1.426,0.606,-0.0652,0.129,2.9894,40.110921,-88.230509,5.7489,50.0383,740.097412,Walking,High,98.5665,-1.485,-20.2805,30.3382,-546.1194,-18.7898,-12.4321,-30.2734
01-Nov-2017 17:29:57.177,-0.3686,0.4525,0.2502,-0.7004,0.328,0.3886,-0.0652,0.129,2.9894,40.110944,-88.230509,5.7489,40.188,739.867554,Walking,High,98.5652,-1.3819,2.33,21.9017,-563.6133,-18.7898,-12.4321,-30.2734
01-Nov-2017 17:29:58.182,-0.2036,1.4526,0.2745,-1.3957,1.7338,-2.4403,-0.0652,0.129,2.9894,40.110969,-88.230511,5.816,38.8519,739.537537,Walking,High,98.5651,-1.374,-15.5461,21.011,-544.2324,-18.7898,-12.4321,-30.2734
01-Nov-2017 17:29:59.181,-0.2282,0.5046,-0.0434,-0.1857,0.2454,0.7209,-0.0652,0.129,2.9894,40.110993,-88.230511,5.391,37.6851,739.663879,Walking,High,98.564,-1.2789,-12.567,21.1767,-552.5748,-18.7898,-12.4321,-30.2734
01-Nov-2017 17:30:00.182,-0.8335,1.5256,-0.036,1.853,1.716,3.2235,-0.0652,0.129,2.9894,40.111011,-88.230508,5.391,45.5028,739.434387,Walking,High,98.564,-1.2789,3.6082,19.44,-562.825,-18.7898,-12.4321,-30.2734
01-Nov-2017 17:30:01.184,-0.2328,1.1743,-0.1194,-2.4821,-0.8567,-1.8777,-0.0652,0.129,2.9894,40.111033,-88.230503,5.391,36.9726,738.740356,Walking,High,98.5642,-1.2974,7.1226,17.5165,-567.4449,-18.7898,-12.4321,-30.2734
01-Nov-2017 17:30:02.186,-0.0188,0.3882,0.3535,0.5034,-0.5068,-0.7424,-0.0652,0.129,2.9894,40.111057,-88.230497,5.7489,38.1514,739.140076,Walking,High,98.5658,-1.4295,-12.2509,21.5645,-546.0474,-18.7898,-12.4321,-30.2734
01-Nov-2017 17:30:03.188,0.5887,0.7996,-0.1224,-2.2711,-0.3646,-1.809,-0.0652,0.129,2.9894,40.111081,-88.230492,6.2411,43.3868,738.745178,Walking,High,98.5665,-1.4903,-3.8744,11.8021,-557.3892,-18.7898,-12.4321,-30.2734
01-Nov-2017 17:30:04.190,-0.1684,0.9868,-0.0371,1.6854,0.6288,2.4826,-0.0652,0.129,2.9894,40.111104,-88.230488,5.3463,33.3627,740.350525,Walking,High,98.5667,-1.5061,14.4094,4.5389,-565.3165,-18.7898,-12.4321,-30.2734
01-Nov-2017 17:30:05.193,0.2294,2.3097,0.1684,-3.2943,-0.2077,-1.9313,-0.0652,0.129,2.9894,40.111131,-88.230487,7.1135,23.8028,740.950073,Walking,High,98.5667,-1.5061,-0.1901,13.8683,-553.2643,-18.7898,-12.4321,-30.2734
01-Nov-2017 17:30:06.200,0.0262,-0.4611,0.1857,1.2135,0.9324,1.7022,-0.0652,0.129,2.9894,40.111156,-88.230488,5.391,29.7129,741.336731,Walking,High,98.5667,-1.5061,-5.6544,14.348,-548.8733,-18.7898,-12.4321,-30.2734
01-Nov-2017 17:30:07.195,-0.221,2.23,-0.3707,1.8533,-0.2543,2.0993,-0.0652,0.129,2.9894,40.111174,-88.230491,5.391,44.1336,740.477295,Walking,High,98.5671,-1.5405,-5.0675,15.0959,-553.9685,-18.7898,-12.4321,-30.2734
01-Nov-2017 17:30:08.197,0.0405,0.2441,-0.1622,-1.5378,0.0837,-1.0653,-0.0652,0.129,2.9894,40.111193,-88.230492,5.391,39.7191,741.233459,Walking,High,98.5684,-1.6488,8.7848,10.6375,-563.9348,-18.7898,-12.4321,-30.2734
01-Nov-2017 17:30:09.198,-0.2502,0.9826,0.5475,-0.7915,-0.6101,-2.2461,-0.0652,0.129,2.9894,40.111215,-88.230494,5.8384,37.3652,741.301086,Walking,High,98.5674,-1.5643,-8.652,15.8963,-547.636,-18.7898,-12.4321,-30.2734
01-Nov-2017 17:30:10.200,0.3509,1.3422,-0.3984,1.5989,3.6852,-1.2933,-0.0652,0.129,2.9894,40.111239,-88.230493,6.1068,31.5327,740.204163,Walking,High,98.5674,-1.5669,-6.655,21.1501,-557.7886,-18.7898,-12.4321,-30.2734
01-Nov-2017 17:30:11.202,-0.3213,1.3754,0.8744,2.09,-2.1544,2.6361,-0.0652,0.129,2.9894,40.11126,-88.230489,5.8384,30.2115,740.311707,Walking,High,98.5674,-1.5669,2.0193,15.2153,-569.2382,-18.7898,-12.4321,-30.2734
01-Nov-2017 17:30:12.204,0.0479,2.0027,0.1143,-2.8352,-1.9859,-2.5078,-0.0652,0.129,2.9894,40.111284,-88.230482,6.1068,27.2286,742.065674,Walking,High,98.5678,-1.6039,1.2963,17.2503,-558.0351,-18.7898,-12.4321,-30.2734
01-Nov-2017 17:30:13.205,-0.1429,-0.1588,0.0808,1.1387,-0.3076,1.2213,-0.0652,0.129,2.9894,40.11131,-88.230476,5.5924,34.1839,744.587952,Walking,High,98.5691,-1.7096,-10.3156,18.9483,-552.4651,-18.7898,-12.4321,-30.2734
01-Nov-2017 17:30:14.207,-0.0058,-0.3128,-0.4809,1.8467,3.3085,-0.3834,-0.0652,0.129,2.9894,40.111331,-88.230472,4.6528,40.0827,745.684509,Walking,High,98.5678,-1.6039,-3.7927,20.3594,-553.0162,-18.7898,-12.4321,-30.2734
01-Nov-2017 17:30:15.209,-0.4284,0.538,0.2811,0.5448,0.2357,1.7835,-0.0652,0.129,2.9894,40.11135,-88.230469,4.8094,34.1489,745.508118,Walking,High,98.5675,-1.5775,11.0229,16.2784,-567.5595,-18.7898,-12.4321,-30.2734
01-Nov-2017 17:30:16.211,0.3527,1.7201,0.1845,-3.4028,0.318,-1.7723,-0.0652,0.129,2.9894,40.111374,-88.230468,4.8094,32.39,744.588135,Walking,High,98.5672,-1.5511,-1.2458,25.6334,-553.1971,-18.7898,-12.4321,-30.2734
01-Nov-2017 17:30:17.212,-0.0366,-0.4676,0.166,0.9079,2.1135,2.0218,-0.0652,0.129,2.9894,40.111397,-88.230466,4.8094,76.8613,745.61145,Walking,High,98.5668,-1.5167,-5.2789,25.6052,-546.4213,-18.7898,-12.4321,-30.2734
01-Nov-2017 17:30:18.214,-0.7347,1.1754,-0.0195,1.7869,1.8097,3.0469,-0.0652,0.129,2.9894,40.111412,-88.230459,4.4291,113.6633,743.364075,Walking,High,98.5664,-1.485,10.4105,22.912,-541.2292,-18.7898,-12.4321,-30.2734
01-Nov-2017 17:30:19.217,-0.4091,2.9197,0.1376,-3.3219,0.4579,-0.465,-0.0652,0.129,2.9894,40.111428,-88.230438,6.845,115.2467,742.55188,Walking,High,98.5658,-1.4321,2.6497,19.4858,-526.2182,-18.7898,-12.4321,-30.2734
01-Nov-2017 17:30:20.218,-0.0175,-0.9995,-0.5392,0.5655,-0.1828,1.2267,-0.0652,0.129,2.9894,40.111439,-88.230412,6.845,127.2386,741.669739,Walking,High,98.5658,-1.4321,-9.5548,13.5304,-519.2323,-18.7898,-12.4321,-30.2734
01-Nov-2017 17:30:21.219,-0.4971,1.2034,-0.2815,2.2865,-0.1084,1.8571,-0.0652,0.129,2.9894,40.111444,-88.230387,4.2054,137.7388,740.861145,Walking,High,98.5682,-1.6303,-21.1357,20.6039,-530.1757,-18.7898,-12.4321,-30.2734
01-Nov-2017 17:30:22.221,-0.5705,1.233,-0.2076,-3.2176,-0.1759,-1.9336,-0.0652,0.129,2.9894,40.111446,-88.230353,4.2054,131.2351,740.045593,Walking,High,98.5689,-1.6937,4.2751,20.3868,-535.8934,-18.7898,-12.4321,-30.2734
01-Nov-2017 17:30:23.223,-0.0942,-0.285,-0.0547,0.9715,-0.0556,0.7782,-0.0652,0.129,2.9894,40.111445,-88.230316,5.145,130.3586,740.170532,Walking,High,98.5685,-1.662,-10.9052,14.3426,-519.2142,-18.7898,-12.4321,-30.2734
01-Nov-2017 17:30:24.225,-0.7506,-0.6319,0.2707,0.9128,1.7185,-0.1143,-0.0652,0.129,2.9894,40.111447,-88.230283,5.7713,136.7543,740.836548,Walking,High,98.5705,-1.8259,-7.246,18.194,-524.7437,-18.7898,-12.4321,-30.2734
01-Nov-2017 17:30:25.227,-0.2055,0.1902,0.1062,-1.4157,0.4184,-0.9585,-0.0652,0.129,2.9894,40.111448,-88.230256,5.7713,131.0392,737.480835,Walking,High,98.5708,-1.8576,13.0383,21.2132,-540.4409,-18.7898,-12.4321,-30.2734
01-Nov-2017 17:30:26.237,-0.466,1.1131,0.6134,-1.4313,-0.0378,-2.7215,-0.0652,0.129,2.9894,40.111451,-88.230226,5.7713,134.2177,735.31897,Walking,High,98.5708,-1.8576,-11.6507,14.4132,-517.4086,-18.7898,-12.4321,-30.2734
01-Nov-2017 17:30:27.230,-0.0332,1.2263,-0.2143,0.9649,1.9997,-0.3776,-0.0652,0.129,2.9894,40.111455,-88.230199,5.2121,142.0398,734.850586,Walking,High,98.5707,-1.847,-10.7692,19.0619,-523.8859,-18.7898,-12.4321,-30.2734
01-Nov-2017 17:30:28.232,0.0997,0.9206,0.4658,2.1289,-1.6239,2.1438,-0.0652,0.129,2.9894,40.111454,-88.230178,5.2121,142.2401,733.440613,Walking,High,98.5682,-1.6382,4.9499,24.3692,-535.177,-18.7898,-12.4321,-30.2734
01-Nov-2017 17:30:29.234,0.4185,2.1711,0.1872,-3.6537,-1.2081,-2.7436,-0.0652,0.129,2.9894,40.111453,-88.230153,6.0845,125.5802,732.863525,Walking,High,98.5682,-1.6382,6.6238,19.7481,-526.541,-18.7898,-12.4321,-30.2734
01-Nov-2017 17:30:30.235,-0.2151,-0.4564,0.1958,0.8962,-0.0096,1.8787,-0.0652,0.129,2.9894,40.11145,-88.230129,6.0845,138.6478,732.381958,Walking,High,98.568,-1.6198,-8.3527,14.8935,-518.0994,-18.7898,-12.4321,-30.2734
01-Nov-2017 17:30:31.237,-0.2586,2.2819,-0.3124,1.4957,-1.898,2.3695,-0.0652,0.129,2.9894,40.111447,-88.230106,5.145,140.8998,731.762756,Walking,High,98.568,-1.6198,-5.2966,19.0374,-524.8217,-18.7898,-12.4321,-30.2734
01-Nov-2017 17:30:32.239,0.0699,0.5395,-0.396,-2.5315,0.1772,-1.5161,-0.0652,0.129,2.9894,40.111446,-88.230084,4.7199,135.8266,731.974854,Walking,High,98.569,-1.699,8.8541,20.8828,-534.1924,-18.7898,-12.4321,-30.2734
01-Nov-2017 17:30:33.241,-0.0987,-0.046,0.1648,0.4727,-0.0304,0.4578,-0.0652,0.129,2.9894,40.111445,-88.23006,5.145,146.9336,731.717102,Walking,High,98.5677,-1.596,-12.4751,13.2054,-517.4171,-18.7898,-12.4321,-30.2734
01-Nov-2017 17:30:34.242,-0.4377,-0.1615,-0.329,0.6991,0.3919,0.4892,-0.0652,0.129,2.9894,40.111443,-88.23003,6.42,139.6598,732.525085,Walking,High,98.5683,-1.6409,-7.2392,17.4479,-522.2023,-18.7898,-12.4321,-30.2734
01-Nov-2017 17:30:35.244,-0.2064,0.4391,0.1195,-1.2523,0.3099,-0.3786,-0.0652,0.129,2.9894,40.111442,-88.230005,6.42,131.2471,733.151062,Walking,High,98.5674,-1.5669,13.7885,21.5205,-540.2922,-18.7898,-12.4321,-30.2734
01-Nov-2017 17:30:36.246,-0.5175,1.0098,0.436,-1.1354,0.4603,-1.7533,-0.0652,0.129,2.9894,40.111442,-88.22998,5.9055,140.6988,732.570374,Walking,High,98.5662,-1.4612,-12.3981,13.6574,-516.5124,-18.7898,-12.4321,-30.2734
01-Nov-2017 17:30:37.247,0.5084,2.6455,1.0696,-2.0233,-3.108,1.8437,-0.0652,0.129,2.9894,40.111443,-88.229957,4.6081,139.7688,731.451599,Walking,High,98.565,-1.3634,-6.416,18.505,-522.7205,-18.7898,-12.4321,-30.2734
01-Nov-2017 17:30:38.249,-0.3814,0.7775,0.2753,1.0892,0.62,2.0297,-0.0652,0.129,2.9894,40.111442,-88.229937,4.3397,134.8263,731.58136,Walking,High,98.5641,-1.2842,13.3363,21.3649,-541.191,-18.7898,-12.4321,-30.2734
01-Nov-2017 17:30:39.252,-0.2701,1.3148,0.0448,-1.2721,2.2519,-2.7128,-0.0652,0.129,2.9894,40.111439,-88.22991,6.599,140.1812,731.090515,Walking,High,98.5638,-1.2604,-1.9834,15.3257,-520.3109,-18.7898,-12.4321,-30.2734
01-Nov-2017 17:30:40.253,-0.1944,1.2285,-0.214,1.0451,2.569,-0.674,-0.0652,0.129,2.9894,40.111436,-88.229882,6.599,144.7347,730.349854,Walking,High,98.5634,-1.2234,-5.4519,29.2358,-524.9284,-18.7898,-12.4321,-30.2734
01-Nov-2017 17:30:41.255,-0.1474,0.7005,-0.0002,2.6715,-1.3028,2.4518,-0.0652,0.129,2.9894,40.111435,-88.229861,4.6976,137.9091,729.816589,Walking,High,98.5638,-1.2604,-2.2561,28.4985,-536.7327,-18.7898,-12.4321,-30.2734
01-Nov-2017 17:30:42.265,0.2207,2.0884,0.3136,-2.5673,-2.059,-2.2925,-0.0652,0.129,2.9894,40.111435,-88.229834,4.6976,135.6719,728.458496,Walking,High,98.5626,-1.1547,0.7048,17.9699,-524.4979,-18.7898,-12.4321,-30.2734
01-Nov-2017 17:30:43.258,-0.2745,-0.4073,0.0106,0.6117,0.4563,1.9662,-0.0652,0.129,2.9894,40.111435,-88.229804,5.2121,140.2359,728.281311,Walking,High,98.5636,-1.2472,-7.8356,16.094,-521.014,-18.7898,-12.4321,-30.2734
01-Nov-2017 17:30:44.260,-0.177,1.4857,-0.0683,1.3965,-0.4162,1.6572,-0.0652,0.129,2.9894,40.111436,-88.229777,4.966,148.0304,726.871338,Walking,High,98.5626,-1.1547,-8.4463,18.4825,-524.8076,-18.7898,-12.4321,-30.2734
01-Nov-2017 17:30:45.261,-0.2525,0.3727,0.0227,-1.2261,0.6024,-0.4383,-0.0652,0.129,2.9894,40.111436,-88.229751,4.966,142.6098,727.145508,Walking,High,98.5614,-1.0543,12.225,19.9371,-536.0253,-18.7898,-12.4321,-30.2734
01-Nov-2017 17:30:46.263,-0.4303,0.9233,0.5985,-1.4472,-0.5878,-2.4542,-0.0652,0.129,2.9894,40.111438,-88.229722,4.966,143.8813,726.85614,Walking,High,98.5614,-1.0517,-12.619,10.882,-515.4178,-18.7898,-12.4321,-30.2734
01-Nov-2017 17:30:47.265,0.2885,4.2839,1.4217,1.3215,3.5852,-0.3845,-0.0652,0.129,2.9894,40.111442,-88.229694,4.8989,146.4981,726.551758,Walking,High,98.5619,-1.0966,-9.2536,13.2339,-518.7877,-18.7898,-12.4321,-30.2734
01-Nov-2017 17:30:48.267,-0.1764,1.1568,0.2858,1.9723,-1.1731,2.6596,-0.0652,0.129,2.9894,40.111444,-88.229669,4.8989,138.9993,726.378723,Walking,High,98.5614,-1.0517,7.8884,16.3029,-531.3888,-18.7898,-12.4321,-30.2734
01-Nov-2017 17:30:49.269,0.0988,2.6832,0.2086,-3.5417,-1.8757,-2.3983,-0.0652,0.129,2.9894,40.111444,-88.229641,5.0555,133.0043,726.435608,Walking,High,98.5611,-1.0332,9.107,14.8252,-524.2137,-18.7898,-12.4321,-30.2734
01-Nov-2017 17:30:50.271,-0.2371,-0.2211,-0.0384,1.0058,0.345,1.884,-0.0652,0.129,2.9894,40.111434,-88.229603,7.1582,138.0034,726.023315,Walking,High,98.5606,-0.9856,-3.7829,14.5587,-520.233,-18.7898,-12.4321,-30.2734
01-Nov-2017 17:30:51.275,-0.0803,0.8187,-0.0906,1.6162,0.2841,1.0127,-0.0652,0.129,2.9894,40.111426,-88.229563,6.7332,149.1241,724.473572,Walking,High,98.5611,-1.0279,-5.2947,18.7385,-524.1501,-18.7898,-12.4321,-30.2734
01-Nov-2017 17:30:52.274,-0.3435,0.4182,0.1885,-0.9545,0.277,0.0068,-0.0652,0.129,2.9894,40.111419,-88.22953,6.7332,140.1725,724.981445,Walking,High,98.5611,-1.0279,13.5749,19.6498,-536.1123,-18.7898,-12.4321,-30.2734
01-Nov-2017 17:30:53.275,-0.5471,0.9695,0.4389,-0.9277,-0.0723,-2.0062,-0.0652,0.129,2.9894,40.111421,-88.229499,6.0397,140.9936,725.236328,Walking,High,98.5611,-1.0279,-7.7553,14.8976,-519.1533,-18.7898,-12.4321,-30.2734
01-Nov-2017 17:30:54.278,0.592,1.7215,1.3495,-1.2234,-2.4985,-0.0769,-0.0652,0.129,2.9894,40.111428,-88.229472,4.2054,142.7864,723.930725,Walking,High,98.562,-1.1098,-5.5022,20.9977,-516.6978,-18.7898,-12.4321,-30.2734
01-Nov-2017 17:30:55.329,-0.3058,0.6828,0.1829,-1.2234,-2.4985,-0.0769,-0.0652,0.129,2.9894,40.111436,-88.229444,5.7042,143.8078,724.536499,Walking,High,98.5617,-1.0781,15.2911,19.1357,-539.7294,-18.7898,-12.4321,-30.2734
01-Nov-2017 17:30:56.331,-0.4957,0.9002,0.4009,0.3544,-0.8376,1.6089,-0.0652,0.129,2.9894,40.111437,-88.229417,4.2054,145.9111,725.143005,Walking,High,98.5626,-1.1547,-7.7504,12.8,-517.6025,-18.7898,-12.4321,-30.2734
01-Nov-2017 17:30:57.332,0.4966,1.0771,0.3065,-1.4287,2.3987,-3.1486,-0.0652,0.129,2.9894,40.111435,-88.229395,3.937,142.6593,724.703491,Walking,High,98.5623,-1.1283,-5.8929,16.4832,-523.8722,-18.7898,-12.4321,-30.2734
01-Nov-2017 17:30:58.334,-0.494,0.989,0.0437,1.2749,1.9668,-0.5523,-0.0652,0.129,2.9894,40.111431,-88.229373,3.8923,141.9346,725.311829,Walking,High,98.5623,-1.1283,10.2673,21.0393,-538.8499,-18.7898,-12.4321,-30.2734
01-Nov-2017 17:30:59.336,0.4794,2.2093,0.3176,3.1385,0.5666,1.2486,-0.0652,0.129,2.9894,40.111428,-88.229347,4.6976,138.1804,726.511108,Walking,High,98.5623,-1.1283,2.5811,18.2137,-523.9073,-18.7898,-12.4321,-30.2734
01-Nov-2017 17:31:00.338,-0.1775,-0.0911,0.1066,-2.7472,-2.0922,-1.95,-0.0652,0.129,2.9894,40.111428,-88.229322,4.6976,142.2631,726.094788,Walking,High,98.5636,-1.2445,-6.4831,13.1825,-520.6063,-18.7898,-12.4321,-30.2734
01-Nov-2017 17:31:01.339,-0.4683,1.0996,0.0547,0.6706,0.0316,-0.0488,-0.0652,0.129,2.9894,40.111434,-88.2293,4.1383,150.6794,726.163086,Walking,High,98.5622,-1.1256,-3.5674,16.5806,-523.6611,-18.7898,-12.4321,-30.2734
01-Nov-2017 17:31:02.341,-0.2175,0.5815,0.2308,0.7808,-1.3159,-1.3719,-0.0652,0.129,2.9894,40.11144,-88.22928,3.8252,140.7152,726.410156,Walking,High,98.5621,-1.1177,14.9286,21.6905,-534.2226,-18.7898,-12.4321,-30.2734
01-Nov-2017 17:31:03.343,-0.2199,1.5858,0.2083,1.8351,-0.7454,2.7242,-0.0652,0.129,2.9894,40.111442,-88.229257,3.8252,141.2042,727.554993,Walking,High,98.5621,-1.1177,0.0472,18.4243,-517.4385,-18.7898,-12.4321,-30.2734
01-Nov-2017 17:31:04.344,-0.3898,1.0127,-0.1235,-3.2697,0.0914,-2.2942,-0.0652,0.129,2.9894,40.111441,-88.229232,4.4291,143.3821,727.546753,Walking,High,98.5621,-1.1177,3.4782,7.3421,-527.2632,-18.7898,-12.4321,-30.2734
01-Nov-2017 17:31:05.346,-0.7126,1.8752,0.6179,1.0557,-0.4739,1.7363,-0.0652,0.129,2.9894,40.111437,-88.229208,4.4291,140.4165,728.829956,Walking,High,98.5609,-1.012,2.9288,18.5757,-534.7805,-18.7898,-12.4321,-30.2734
01-Nov-2017 17:31:06.348,-0.2101,1.1708,-0.336,1.7635,-0.0093,1.1673,-0.0652,0.129,2.9894,40.111431,-88.229187,3.8923,137.7692,729.210449,Walking,High,98.5607,-0.9935,8.7795,19.0818,-534.3626,-18.7898,-12.4321,-30.2734
01-Nov-2017 17:31:07.350,0.0512,0.2802,0.2249,-0.5603,0.6336,-0.0091,-0.0652,0.129,2.9894,40.111424,-88.229167,3.7133,137.3333,730.506226,Walking,High,98.5595,-0.8905,-5.7366,14.913,-521.6412,-18.7898,-12.4321,-30.2734
01-Nov-2017 17:31:08.351,0.5087,0.8984,-0.0464,-1.3406,1.9788,-3.1145,-0.0652,0.129,2.9894,40.111419,-88.229141,3.8923,142.2449,730.069458,Walking,High,98.5595,-0.8905,-7.6913,13.9163,-523.74,-18.7898,-12.4321,-30.2734
01-Nov-2017 17:31:09.353,-0.1023,1.1817,0.0469,-0.4607,-0.2934,0.663,-0.0652,0.129,2.9894,40.11142,-88.22911,4.6976,138.4046,729.593079,Walking,High,98.5593,-0.8746,13.7839,21.6678,-542.0905,-18.7898,-12.4321,-30.2734
01-Nov-2017 17:31:10.356,0.1923,2.6391,0.244,2.4383,0.6991,2.4957,-0.0652,0.129,2.9894,40.111424,-88.229079,4.6976,134.4582,729.957153,Walking,High,98.5605,-0.9803,4.3681,20.3235,-528.6947,-18.7898,-12.4321,-30.2734
01-Nov-2017 17:31:11.357,-0.1954,-0.7777,-0.3789,-2.4224,0.7817,-2.256,-0.0652,0.129,2.9894,40.111426,-88.229044,4.6976,148.5045,729.735474,Walking,High,98.5597,-0.9142,-6.6288,16.8598,-518.1631,-18.7898,-12.4321,-30.2734
01-Nov-2017 17:31:12.359,-0.3271,2.2788,0.303,0.0464,-0.3519,-0.3898,-0.0652,0.129,2.9894,40.111427,-88.229012,4.6752,158.3125,729.91272,Walking,High,98.5597,-0.9142,-10.9297,26.1062,-526.6537,-18.7898,-12.4321,-30.2734
01-Nov-2017 17:31:13.360,-0.2163,0.1512,-0.1378,0.8038,-1.3292,-1.1625,-0.0652,0.129,2.9894,40.111428,-88.228989,3.7581,153.1427,730.208435,Walking,High,98.5597,-0.9142,17.1786,18.4859,-534.8741,-18.7898,-12.4321,-30.2734
01-Nov-2017 17:31:14.364,-0.1545,0.8898,0.6267,0.7806,0.0704,1.8413,-0.0652,0.129,2.9894,40.111427,-88.228956,6.9345,145.4476,729.157532,Walking,High,98.5593,-0.8799,-14.1069,-0.6784,-512.9161,-18.7898,-12.4321,-30.2734
01-Nov-2017 17:31:15.364,1.1181,2.2064,1.566,-3.2887,1.0005,-2.1448,-0.0652,0.129,2.9894,40.111424,-88.228919,6.9345,152.9721,728.350342,Walking,High,98.5598,-0.9195,-4.9173,9.6658,-525.0069,-18.7898,-12.4321,-30.2734
01-Nov-2017 17:31:16.365,0.1101,1.4404,0.4696,1.0178,0.5983,2.3799,-0.0652,0.129,2.9894,40.111422,-88.228887,5.6147,150.226,726.883362,Walking,High,98.5598,-0.9195,15.1405,18.8338,-540.0319,-18.7898,-12.4321,-30.2734
01-Nov-2017 17:31:17.367,-0.1246,1.9512,0.4898,4.0284,2.1205,5.0977,-0.0652,0.129,2.9894,40.111418,-88.228856,5.5029,152.2407,727.528748,Walking,High,98.5598,-0.9195,-0.4808,14.8164,-519.3515,-18.7898,-12.4321,-30.2734
01-Nov-2017 17:31:18.369,0.2009,0.2176,0.328,-2.4426,-2.1366,-2.2966,-0.0652,0.129,2.9894,40.111413,-88.228822,5.5029,156.1522,727.039978,Walking,High,98.5601,-0.9407,-9.9958,11.506,-516.0278,-18.7898,-12.4321,-30.2734
01-Nov-2017 17:31:19.370,-0.1968,0.7984,-0.0832,1.062,0.1693,2.0848,-0.0652,0.129,2.9894,40.111407,-88.228785,6.3976,153.877,726.342468,Walking,High,98.5609,-1.0147,7.358,10.968,-534.5967,-18.7898,-12.4321,-30.2734
01-Nov-2017 17:31:20.372,-0.126,1.7908,0.0371,1.4443,-0.7754,0.5375,-0.0652,0.129,2.9894,40.111402,-88.228756,6.3976,142.5872,726.465271,Walking,High,98.5601,-0.9407,5.4222,12.4585,-528.642,-18.7898,-12.4321,-30.2734
01-Nov-2017 17:31:21.374,0.0121,-0.3181,-0.004,-0.9154,0.7815,-0.1484,-0.0652,0.129,2.9894,40.111399,-88.228722,6.3976,146.0828,726.48645,Walking,High,98.5579,-0.7583,-11.1244,9.2424,-517.9214,-18.7898,-12.4321,-30.2734
01-Nov-2017 17:31:22.375,-0.2938,0.1882,-0.298,-1.4634,-0.4798,-3.3941,-0.0652,0.129,2.9894,40.111396,-88.228688,5.5252,156.6865,726.232178,Walking,High,98.5569,-0.6712,-11.885,15.0056,-521.0002,-18.7898,-12.4321,-30.2734
01-Nov-2017 17:31:23.377,-0.4003,0.6328,0.3636,2.7614,3.1482,-0.3658,-0.0652,0.129,2.9894,40.111394,-88.228663,5.5252,146.5622,725.488647,Walking,High,98.5564,-0.6342,13.9409,18.8976,-539.8734,-18.7898,-12.4321,-30.2734
01-Nov-2017 17:31:24.379,-0.4787,1.1472,0.1618,2.8901,-0.2401,2.0643,-0.0652,0.129,2.9894,40.111393,-88.228636,5.7042,141.8188,725.641846,Walking,High,98.5563,-0.6236,-2.2031,13.9764,-518.45,-18.7898,-12.4321,-30.2734
01-Nov-2017 17:31:25.381,-0.2657,0.3793,-0.3696,-1.7045,-1.7294,-2.7299,-0.0652,0.129,2.9894,40.111391,-88.228602,6.7108,139.1887,726.689148,Walking,High,98.5543,-0.4466,-3.8733,18.6748,-525.5851,-18.7898,-12.4321,-30.2734
01-Nov-2017 17:31:26.382,-0.6013,1.2383,0.1177,1.0485,-0.4213,1.1036,-0.0652,0.129,2.9894,40.111391,-88.228565,6.4424,144.3511,727.639709,Walking,High,98.5543,-0.4466,8.3938,21.5475,-538.1569,-18.7898,-12.4321,-30.2734
01-Nov-2017 17:31:27.384,-0.5446,1.1236,0.1741,-0.4689,0.3071,-0.2479,-0.0652,0.129,2.9894,40.111392,-88.228533,6.4424,131.3557,727.197937,Walking,High,98.553,-0.3435,9.6053,20.2155,-533.83,-18.7898,-12.4321,-30.2734
01-Nov-2017 17:31:28.388,-0.2376,-0.2884,0.2872,0.2218,-0.1575,1.2879,-0.0652,0.129,2.9894,40.111395,-88.228507,5.0779,137.6229,727.424805,Walking,High,98.5547,-0.4888,-9.4822,16.5305,-519.5733,-18.7898,-12.4321,-30.2734
01-Nov-2017 17:31:29.387,-0.334,-0.3672,-0.2224,-1.7117,1.1402,-3.4132,-0.0652,0.129,2.9894,40.111398,-88.22848,4.9884,149.5602,727.76886,Walking,High,98.5544,-0.4571,-7.9932,19.539,-523.3734,-18.7898,-12.4321,-30.2734
01-Nov-2017 17:31:30.389,-0.3477,0.3432,0.0246,1.5448,4.0462,-0.7126,-0.0652,0.129,2.9894,40.1114,-88.228452,4.9884,141.3538,727.680725,Walking,High,98.5544,-0.4571,12.4434,19.8602,-538.6526,-18.7898,-12.4321,-30.2734
01-Nov-2017 17:31:31.391,-0.4689,0.8991,0.6099,1.9844,-2.2986,2.9109,-0.0652,0.129,2.9894,40.111404,-88.228421,4.9884,144.9563,728.289917,Walking,High,98.5545,-0.4703,-8.2074,14.8921,-519.9754,-18.7898,-12.4321,-30.2734
01-Nov-2017 17:31:32.393,0.1812,2.1989,0.9364,-3.5679,-1.7922,-2.3429,-0.0652,0.129,2.9894,40.111408,-88.228388,5.7042,155.4805,727.914429,Walking,High,98.5557,-0.5681,-12.4171,18.5973,-523.1305,-18.7898,-12.4321,-30.2734
01-Nov-2017 17:31:33.394,-0.037,1.2415,-0.0307,0.8047,1.2695,2.5488,-0.0652,0.129,2.9894,40.111411,-88.228355,5.7937,147.2817,726.669067,Walking,High,98.5545,-0.4703,9.6611,21.4799,-541.2408,-18.7898,-12.4321,-30.2734
01-Nov-2017 17:31:34.396,0.1704,1.9452,0.2341,1.7289,-0.6186,1.1281,-0.0652,0.129,2.9894,40.111412,-88.228327,4.4739,141.3232,725.617615,Walking,High,98.5535,-0.3884,0.4807,17.5933,-524.2008,-18.7898,-12.4321,-30.2734
01-Nov-2017 17:31:35.398,-0.0031,-0.0426,-0.0117,-1.9562,0.5162,-1.6122,-0.0652,0.129,2.9894,40.111413,-88.228295,6.8674,147.4788,725.437378,Running,High,98.5535,-0.3884,-4.311,17.6277,-520.8693,-18.7898,-12.4321,-30.2734
01-Nov-2017 17:31:36.400,-0.5161,2.9611,0.2282,-0.1169,0.1068,-1.7691,-0.0652,0.129,2.9894,40.111414,-88.22826,5.7042,149.3646,724.310608,Running,High,98.5548,-0.4915,-6.6536,21.7211,-527.107,-18.7898,-12.4321,-30.2734
01-Nov-2017 17:31:37.401,-0.0668,0.797,-0.2909,-3.2852,3.1561,0.3148,-0.0652,0.129,2.9894,40.111416,-88.228227,5.8384,142.7094,723.558472,Running,High,98.5558,-0.5787,11.48,19.5579,-534.0747,-18.7898,-12.4321,-30.2734
01-Nov-2017 17:31:38.403,-0.0384,-0.0001,0.3586,1.6026,-1.4916,2.4166,-0.0652,0.129,2.9894,40.111418,-88.228194,5.8384,136.9491,722.382996,Running,High,98.5554,-0.5443,-7.2367,12.8731,-522.105,-18.7898,-12.4321,-30.2734
01-Nov-2017 17:31:39.405,0.0381,-0.3587,-0.2551,-2.88,0.6765,-1.7632,-0.0652,0.129,2.9894,40.11142,-88.228161,5.5476,140.0531,722.839783,Running,High,98.5566,-0.65,-3.3419,14.6325,-523.835,-18.7898,-12.4321,-30.2734
01-Nov-2017 17:31:40.406,-0.4768,0.4352,0.2753,0.7344,0.1001,1.4385,-0.0652,0.129,2.9894,40.111423,-88.228132,5.5476,135.0588,722.636536,Running,High,98.5567,-0.6527,16.3411,15.9947,-540.3723,-18.7898,-12.4321,-30.2734
01-Nov-2017 17:31:41.410,-0.6616,1.2578,0.3651,3.1658,-0.4539,3.9118,-0.0652,0.129,2.9894,40.111423,-88.228105,5.3015,126.0654,722.85022,Running,High,98.5573,-0.7081,3.5629,15.3762,-521.7714,-18.7898,-12.4321,-30.2734
01-Nov-2017 17:31:42.411,0.6437,5.0071,-0.0202,-2.4944,-3.3841,-2.9107,-0.0652,0.129,2.9894,40.111427,-88.228077,5.3015,127.5653,722.476929,Running,High,98.5573,-0.7055,-4.4903,26.161,-530.895,-18.7898,-12.4321,-30.2734
01-Nov-2017 17:31:43.412,-0.046,0.233,0.3221,1.1744,0.4212,2.4687,-0.0652,0.129,2.9894,40.111432,-88.228045,5.6818,143.918,721.996765,Running,High,98.5573,-0.7055,14.5324,19.3483,-543.1721,-18.7898,-12.4321,-30.2734
01-Nov-2017 17:31:44.413,-0.3618,1.2337,0.6533,2.137,-2.5496,4.202,-0.0652,0.129,2.9894,40.111437,-88.228013,5.9503,148.9017,722.561218,Running,High,98.5573,-0.7055,-11.3505,9.6147,-518.2907,-18.7898,-12.4321,-30.2734
01-Nov-2017 17:31:45.416,-0.3207,4.8294,-0.2352,-2.8119,-2.3977,-2.8404,-0.0652,0.129,2.9894,40.11144,-88.227978,6.1516,161.6073,722.700195,Running,High,98.5559,-0.584,-11.9672,14.3253,-524.0074,-18.7898,-12.4321,-30.2734
01-Nov-2017 17:31:46.417,0.0393,1.2755,0.0903,0.9332,-0.2456,1.472,-0.0652,0.129,2.9894,40.111442,-88.227944,5.9503,155.1414,723.156982,Running,High,98.5557,-0.5655,8.6957,20.6512,-537.5691,-18.7898,-12.4321,-30.2734
01-Nov-2017 17:31:47.418,0.0324,1.558,0.4525,2.3386,-2.484,1.3875,-0.0652,0.129,2.9894,40.111439,-88.227914,5.7713,151.3284,723.697021,Running,High,98.5533,-0.3673,-4.6111,15.1491,-521.4208,-18.7898,-12.4321,-30.2734
01-Nov-2017 17:31:48.420,-0.0285,0.143,0.1637,-1.6365,1.0312,-1.636,-0.0652,0.129,2.9894,40.111435,-88.227883,5.2121,155.917,724.599976,Running,High,98.5523,-0.2827,-7.5338,15.5728,-520.422,-18.7898,-12.4321,-30.2734
01-Nov-2017 17:31:49.422,-0.6717,2.2132,0.2371,-0.5409,-0.3556,-1.6632,-0.0652,0.129,2.9894,40.111431,-88.227854,5.2792,154.5883,723.135559,Running,High,98.5532,-0.3594,2.7159,21.9569,-529.2651,-18.7898,-12.4321,-30.2734
01-Nov-2017 17:31:50.423,-0.1093,0.3723,-0.5411,1.2159,1.1776,-0.6756,-0.0652,0.129,2.9894,40.111428,-88.227828,5.2792,148.3532,723.568054,Running,High,98.5515,-0.2114,7.8833,19.0006,-532.8577,-18.7898,-12.4321,-30.2734
01-Nov-2017 17:31:51.445,-0.227,1.0438,0.467,2.715,0.4127,1.9977,-0.0652,0.129,2.9894,40.111426,-88.227798,5.2792,144.2855,722.642944,Running,High,98.5525,-0.2986,-6.1872,11.5323,-522.5771,-18.7898,-12.4321,-30.2734
01-Nov-2017 17:31:52.428,0.6599,4.4843,1.8344,-2.6475,-2.7762,-1.8151,-0.0652,0.129,2.9894,40.111426,-88.227764,5.8384,137.89,725.08136,Running,High,98.5525,-0.2986,0.7025,13.1671,-526.3531,-18.7898,-12.4321,-30.2734
01-Nov-2017 17:31:53.429,0.1598,1.1987,-0.0594,1.1548,-0.6491,0.1674,-0.0652,0.129,2.9894,40.111427,-88.227725,5.8832,127.6219,724.940979,Running,High,98.5548,-0.4968,22.4092,17.5487,-542.7939,-18.7898,-12.4321,-30.2734
01-Nov-2017 17:31:54.430,-0.3061,1.5125,0.1815,2.4749,-1.6397,1.3763,-0.0652,0.129,2.9894,40.111429,-88.227686,6.3753,101.9855,725.607971,Running,High,98.5551,-0.5232,5.5637,27.1592,-529.0739,-18.7898,-12.4321,-30.2734
01-Nov-2017 17:31:55.432,-0.6839,1.1051,-0.7368,-2.0243,-0.3252,-1.4294,-0.0652,0.129,2.9894,40.11144,-88.227649,7.8293,86.7373,725.710693,Running,High,98.5551,-0.5179,-2.4733,42.1552,-530.8741,-18.7898,-12.4321,-30.2734
01-Nov-2017 17:31:56.440,0.3118,1.2203,0.3519,1.2814,0.1477,-0.4437,-0.0652,0.129,2.9894,40.111457,-88.22762,6.3753,73.7229,725.681091,Running,High,98.5566,-0.65,17.892,28.8988,-547.434,-18.7898,-12.4321,-30.2734
01-Nov-2017 17:31:57.437,-0.0053,2.5599,0.0564,0.8527,-0.2224,-1.6084,-0.0652,0.129,2.9894,40.111476,-88.227603,6.0845,66.1254,725.569336,Running,High,98.5594,-0.8852,11.8197,31.3185,-545.8667,-18.7898,-12.4321,-30.2734
01-Nov-2017 17:31:58.437,-0.2093,-0.4553,-0.1311,0.3124,0.1067,1.4518,-0.0652,0.129,2.9894,40.111503,-88.22759,6.0845,67.1698,726.300659,Walking,High,98.5594,-0.8852,-2.7252,30.5831,-543.9807,-18.7898,-12.4321,-30.2734
01-Nov-2017 17:31:59.440,-0.4329,2.5821,-0.4133,-1.4541,1.7146,-2.2777,-0.0652,0.129,2.9894,40.111532,-88.227582,5.8832,68.4569,726.585022,Walking,High,98.56,-0.9327,5.6591,23.2262,-551.6948,-18.7898,-12.4321,-30.2734
01-Nov-2017 17:32:00.440,0.0026,0.1966,-0.4057,-0.5034,0.6717,-0.5718,-0.0652,0.129,2.9894,40.111556,-88.22758,5.8832,61.6265,727.199951,Walking,High,98.5602,-0.9565,17.8635,17.7031,-561.0626,-18.7898,-12.4321,-30.2734
01-Nov-2017 17:32:01.442,-0.0463,0.3409,0.3952,3.6558,0.7641,2.32,-0.0652,0.129,2.9894,40.111582,-88.227579,5.8832,64.9329,727.537537,Running,High,98.5595,-0.8984,-9.012,28.1306,-539.168,-18.7898,-12.4321,-30.2734
01-Nov-2017 17:32:02.461,0.3029,0.0638,-0.5477,-2.1245,-1.6705,-2.8797,-0.0652,0.129,2.9894,40.111611,-88.227579,6.1963,65.9354,727.865356,Running,High,98.5613,-1.049,-3.4054,30.4985,-546.0771,-18.7898,-12.4321,-30.2734
01-Nov-2017 17:32:03.446,-0.4257,0.4779,0.195,0.8727,0.4845,2.1389,-0.0652,0.129,2.9894,40.111638,-88.22758,6.3976,63.1783,726.1745,Running,High,98.5608,-1.0094,21.3893,19.9127,-560.3101,-18.7898,-12.4321,-30.2734
01-Nov-2017 17:32:04.447,-0.385,0.9141,0.5917,3.4713,-1.6307,3.5976,-0.0652,0.129,2.9894,40.111663,-88.227582,5.3015,62.0355,726.691895,Running,High,98.5618,-1.0939,-6.2351,25.2323,-538.9944,-18.7898,-12.4321,-30.2734
01-Nov-2017 17:32:05.450,0.4692,4.9473,1.2202,-2.4456,-0.8404,-2.0747,-0.0652,0.129,2.9894,40.111689,-88.227585,6.9569,67.9204,726.794678,Running,High,98.5626,-1.1573,-3.9973,24.496,-544.0424,-18.7898,-12.4321,-30.2734
01-Nov-2017 17:32:06.451,-0.1272,1.2034,-0.1488,0.8568,0.1501,0.1372,-0.0652,0.129,2.9894,40.111717,-88.227587,6.2634,62.7679,726.81366,Running,High,98.5631,-1.1996,8.6355,10.8616,-563.6312,-18.7898,-12.4321,-30.2734
01-Nov-2017 17:32:07.452,0.0142,1.8129,0.2407,-0.3168,2.4561,1.3833,-0.0652,0.129,2.9894,40.111739,-88.227589,6.2634,56.792,726.455444,Running,High,98.5627,-1.1679,3.2621,19.3791,-551.2734,-18.7898,-12.4321,-30.2734
01-Nov-2017 17:32:08.459,0.2385,-0.275,0.0243,0.3881,-0.8854,1.4619,-0.0652,0.129,2.9894,40.111764,-88.227588,6.2634,59.3956,725.948181,Running,High,98.5627,-1.1679,-1.7558,22.4866,-547.8301,-18.7898,-12.4321,-30.2734
01-Nov-2017 17:32:09.456,-0.7633,2.7866,0.7434,-1.7123,2.136,-1.6469,-0.0652,0.129,2.9894,40.11179,-88.227587,5.4358,65.6973,726.524902,Running,High,98.5627,-1.1679,7.4446,22.1841,-557.7183,-18.7898,-12.4321,-30.2734
01-Nov-2017 17:32:10.458,0.0579,0.6505,-0.2443,0.7441,0.8135,1.3284,-0.0652,0.129,2.9894,40.11181,-88.227585,5.4358,61.3554,727.237976,Running,High,98.563,-1.1943,16.4332,22.1877,-562.2767,-18.7898,-12.4321,-30.2734
01-Nov-2017 17:32:11.459,-0.0789,0.0539,0.3363,2.887,0.1777,2.5721,-0.0652,0.129,2.9894,40.111831,-88.227584,5.4358,60.8329,729.121338,Running,High,98.564,-1.2815,-10.0622,26.6201,-539.5535,-18.7898,-12.4321,-30.2734
01-Nov-2017 17:32:12.461,0.1679,-0.2558,-0.5815,-2.5242,-2.3338,-2.759,-0.0652,0.129,2.9894,40.111853,-88.227585,5.3015,68.9624,729.184204,Running,High,98.563,-1.1943,-6.4001,24.5465,-545.1512,-18.7898,-12.4321,-30.2734
01-Nov-2017 17:32:13.463,-0.4921,0.6769,0.4206,0.5019,-0.9534,1.3041,-0.0652,0.129,2.9894,40.111875,-88.227584,5.5252,62.3553,727.690369,Running,High,98.5621,-1.1203,12.3117,10.8973,-563.1298,-18.7898,-12.4321,-30.2734
01-Nov-2017 17:32:14.464,-0.1753,1.4717,0.2547,1.4145,-0.2264,0.2697,-0.0652,0.129,2.9894,40.111895,-88.227588,4.5186,61.8792,723.429932,Running,High,98.5621,-1.1203,-6.6976,21.5443,-544.7338,-18.7898,-12.4321,-30.2734
01-Nov-2017 17:32:15.467,-0.0946,3.9646,0.394,-1.1703,0.8299,-0.4723,-0.0652,0.129,2.9894,40.111919,-88.22759,6.9793,67.6281,724.512634,Running,High,98.5599,-0.9275,0.6417,22.5079,-548.8204,-18.7898,-12.4321,-30.2734
01-Nov-2017 17:32:16.468,-0.1198,1.3465,0.1989,-0.3124,-0.178,-1.7156,-0.0652,0.129,2.9894,40.111943,-88.227591,5.1226,60.2821,724.949585,Running,High,98.5598,-0.9195,12.599,16.8191,-567.0385,-18.7898,-12.4321,-30.2734
01-Nov-2017 17:32:17.470,-0.0764,1.6444,0.1649,0.3337,1.5368,0.8176,-0.0652,0.129,2.9894,40.111961,-88.227592,5.1226,58.9982,725.195496,Running,High,98.5599,-0.9275,2.2151,22.972,-549.3503,-18.7898,-12.4321,-30.2734
01-Nov-2017 17:32:18.473,0.1494,-0.3255,0.1286,0.416,-0.5835,1.7042,-0.0652,0.129,2.9894,40.111985,-88.227591,5.1226,56.7843,726.85614,Running,High,98.557,-0.6791,-3.8606,24.7894,-549.2899,-18.7898,-12.4321,-30.2734
01-Nov-2017 17:32:19.473,-0.5092,2.432,-0.0799,-2.1452,0.9441,-1.8459,-0.0652,0.129,2.9894,40.112009,-88.227593,5.0331,64.9835,725.19928,Running,High,98.558,-0.7689,8.5604,21.364,-561.56,-18.7898,-12.4321,-30.2734
01-Nov-2017 17:32:20.474,-0.285,0.9999,0.03,0.343,1.0671,0.8474,-0.0652,0.129,2.9894,40.11203,-88.227595,5.0331,56.3768,724.809814,Running,High,98.5567,-0.6579,10.5874,20.5592,-560.9074,-18.7898,-12.4321,-30.2734
01-Nov-2017 17:32:21.476,-0.1526,-0.2363,0.4156,2.6769,-0.6839,2.7799,-0.0652,0.129,2.9894,40.112049,-88.227598,4.7647,55.1143,724.305359,Running,High,98.5548,-0.4968,-11.2739,26.0014,-544.3528,-18.7898,-12.4321,-30.2734
01-Nov-2017 17:32:22.478,-0.1088,-0.5567,-0.3585,-2.6145,-2.1666,-2.5228,-0.0652,0.129,2.9894,40.112071,-88.227603,4.7647,66.9868,725.040894,Running,High,98.5543,-0.4466,-2.8126,25.6984,-549.8862,-18.7898,-12.4321,-30.2734
01-Nov-2017 17:32:23.482,-0.318,0.5728,0.4077,0.66,-1.1248,0.486,-0.0652,0.129,2.9894,40.112093,-88.227606,5.4134,59.2631,724.425537,Running,High,98.5531,-0.3514,15.6007,17.4489,-566.2258,-18.7898,-12.4321,-30.2734
01-Nov-2017 17:32:24.481,-0.0657,1.3692,0.5772,0.7736,0.1509,0.3187,-0.0652,0.129,2.9894,40.112113,-88.227606,4.4291,56.8101,725.409119,Running,High,98.5513,-0.1929,-12.6976,24.113,-544.2152,-18.7898,-12.4321,-30.2734
01-Nov-2017 17:32:25.485,-0.0509,4.836,1.4684,-1.1366,0.5944,-0.0895,-0.0652,0.129,2.9894,40.112133,-88.227607,4.9213,64.0785,725.638611,Running,High,98.5511,-0.1823,-4.9877,24.4773,-550.1861,-18.7898,-12.4321,-30.2734
01-Nov-2017 17:32:26.485,-0.2049,1.6499,0.8878,-1.8365,0.0486,-2.855,-0.0652,0.129,2.9894,40.112154,-88.227606,4.9213,58.9257,726.916382,Running,High,98.5486,0.0343,12.3021,17.3433,-565.6806,-18.7898,-12.4321,-30.2734
01-Nov-2017 17:32:27.487,0.1509,2.2511,0.0347,2.2005,2.9619,0.4745,-0.0652,0.129,2.9894,40.112174,-88.227605,4.9213,55.7879,727.099243,Running,High,98.5476,0.1189,1.8387,24.0929,-549.71,-18.7898,-12.4321,-30.2734
01-Nov-2017 17:32:28.488,-0.1483,-0.229,-0.0286,2.1774,-1.1335,2.8776,-0.0652,0.129,2.9894,40.112193,-88.227607,5.0107,58.2445,726.787231,Running,High,98.5458,0.2695,-3.33,23.9725,-547.2027,-18.7898,-12.4321,-30.2734
01-Nov-2017 17:32:29.491,-0.6074,3.1634,0.2229,-3.3174,0.7436,-1.4501,-0.0652,0.129,2.9894,40.112214,-88.227611,4.7647,60.5783,728.690796,Running,High,98.5432,0.4994,0.7696,23.5462,-557.4343,-18.7898,-12.4321,-30.2734
01-Nov-2017 17:32:30.491,-0.2969,0.9598,0.0491,0.8305,0.358,1.5875,-0.0652,0.129,2.9894,40.112233,-88.227619,4.7647,53.1425,725.353455,Running,High,98.5419,0.6077,9.9082,19.9501,-562.71,-18.7898,-12.4321,-30.2734
01-Nov-2017 17:32:31.493,-0.4541,-0.3711,0.113,2.7308,1.1464,3.5726,-0.0652,0.129,2.9894,40.112255,-88.227625,4.7647,55.2068,726.741211,Running,High,98.5404,0.7293,-7.4543,25.5092,-546.6332,-18.7898,-12.4321,-30.2734
01-Nov-2017 17:32:32.495,-0.5369,0.5101,-0.0932,-2.6734,-1.9848,-2.6745,-0.0652,0.129,2.9894,40.112279,-88.22763,5.5252,61.1981,728.133728,Running,High,98.5379,0.9433,1.3036,23.6316,-553.8368,-18.7898,-12.4321,-30.2734
01-Nov-2017 17:32:33.496,-0.0596,0.2762,-0.3639,0.6353,-0.583,1.8881,-0.0652,0.129,2.9894,40.112303,-88.227633,5.5252,60.3365,727.161926,Running,High,98.5376,0.9724,15.6888,18.3578,-560.8159,-18.7898,-12.4321,-30.2734
01-Nov-2017 17:32:34.498,-0.5572,0.9901,0.5512,0.8966,2.2368,0.5889,-0.0652,0.129,2.9894,40.112324,-88.227633,4.5857,63.2189,727.689941,Running,High,98.5349,1.2023,-5.3449,24.4846,-543.0587,-18.7898,-12.4321,-30.2734
01-Nov-2017 17:32:35.501,0.1462,3.6272,0.4474,-0.8213,0.4145,0.3437,-0.0652,0.129,2.9894,40.112346,-88.227635,5.6371,71.9021,727.513916,Running,High,98.5339,1.2868,-1.9137,25.3312,-550.4213,-18.7898,-12.4321,-30.2734
01-Nov-2017 17:32:36.502,-0.1585,1.2328,-0.0584,-1.8331,0.5195,-2.6233,-0.0652,0.129,2.9894,40.11237,-88.227634,5.1673,75.7079,727.94165,Running,High,98.5338,1.2974,17.2595,15.8944,-563.0295,-18.7898,-12.4321,-30.2734
01-Nov-2017 17:32:37.503,-0.0311,1.623,0.2969,1.9765,0.0497,0.6417,-0.0652,0.129,2.9894,40.11239,-88.227629,5.1673,73.0404,728.198975,Running,High,98.5327,1.3898,0.6507,23.1886,-545.0626,-18.7898,-12.4321,-30.2734
01-Nov-2017 17:32:38.515,-0.0851,0.5502,0.0968,1.8219,-0.0543,2.4825,-0.0652,0.129,2.9894,40.112413,-88.227617,5.1673,75.5107,729.333984,Running,High,98.5315,1.4903,-0.475,23.6276,-545.2753,-18.7898,-12.4321,-30.2734
01-Nov-2017 17:32:39.508,-0.4432,0.7627,0.0636,-2.5838,1.9156,-1.1848,-0.0652,0.129,2.9894,40.112437,-88.227602,4.8765,79.626,728.674377,Running,High,98.5315,1.4903,11.2004,24.0989,-555.0208,-18.7898,-12.4321,-30.2734
01-Nov-2017 17:32:40.509,0.4771,2.3205,0.1983,-1.3074,0.1452,0.9072,-0.0652,0.129,2.9894,40.112455,-88.22759,4.8765,67.6519,729.307556,Running,High,98.5302,1.6065,2.7526,19.5336,-545.0433,-18.7898,-12.4321,-30.2734
01-Nov-2017 17:32:41.511,-0.1755,-0.0641,0.1839,2.8639,-1.4505,1.8774,-0.0652,0.129,2.9894,40.112476,-88.227578,4.8765,77.1014,729.995422,Running,High,98.5318,1.4612,5.008,21.5088,-542.4852,-18.7898,-12.4321,-30.2734
01-Nov-2017 17:32:42.514,-0.5381,2.5352,0.1678,-3.03,-2.2343,-2.5096,-0.0652,0.129,2.9894,40.112498,-88.227569,4.5857,94.5832,729.833374,Running,High,98.5297,1.6435,15.4095,21.3685,-551.9294,-18.7898,-12.4321,-30.2734
01-Nov-2017 17:32:43.513,-0.286,0.9645,-0.096,0.8788,0.646,1.99,-0.0652,0.129,2.9894,40.112517,-88.227558,5.0779,99.277,730.418091,Running,High,98.5311,1.5246,11.6035,20.5185,-544.4895,-18.7898,-12.4321,-30.2734
01-Nov-2017 17:32:44.515,-0.2036,-0.1753,0.133,2.3778,-0.3962,2.4101,-0.0652,0.129,2.9894,40.112536,-88.227544,4.7423,109.2726,731.866699,Running,High,98.5308,1.5484,-4.033,20.9932,-529.0074,-18.7898,-12.4321,-30.2734
01-Nov-2017 17:32:45.517,-0.5071,0.1501,-0.0665,-2.4826,-1.1593,-2.1773,-0.0652,0.129,2.9894,40.112551,-88.227522,5.4805,119.0639,732.936218,Running,High,98.5304,1.5801,0.7572,24.784,-532.145,-18.7898,-12.4321,-30.2734
01-Nov-2017 17:32:46.519,-0.1279,0.6626,-0.2438,1.0837,-0.4638,1.1039,-0.0652,0.129,2.9894,40.112565,-88.227497,4.7423,113.5914,734.118042,Running,High,98.53,1.6171,17.6162,19.9831,-539.5098,-18.7898,-12.4321,-30.2734
01-Nov-2017 17:32:47.520,-0.3442,-0.4498,0.0825,2.3085,-1.8919,1.7483,-0.0652,0.129,2.9894,40.112574,-88.227476,4.6528,113.0845,733.388367,Running,High,98.5298,1.6303,-1.3261,17.422,-526.9661,-18.7898,-12.4321,-30.2734
01-Nov-2017 17:32:48.522,-0.3123,1.1383,0.094,-2.5926,-0.996,-1.9818,-0.0652,0.129,2.9894,40.112586,-88.227455,4.6528,119.7254,732.428772,Running,High,98.5288,1.7228,8.1828,18.2529,-533.2433,-18.7898,-12.4321,-30.2734
01-Nov-2017 17:32:49.524,0.0743,0.4268,-0.3878,0.9388,-0.397,0.8453,-0.0652,0.129,2.9894,40.112601,-88.227429,6.0845,111.7711,732.804626,Running,High,98.5282,1.7677,20.8248,18.2032,-546.4511,-18.7898,-12.4321,-30.2734
01-Nov-2017 17:32:50.525,0.048,0.1734,0.4482,1.2714,0.2601,0.2852,-0.0652,0.129,2.9894,40.112614,-88.227405,6.0845,128.3564,732.405334,Running,High,98.5272,1.8575,-4.2363,16.728,-521.1801,-18.7898,-12.4321,-30.2734
01-Nov-2017 17:32:51.527,-0.1397,-0.479,-0.4676,-1.8056,-0.2277,-1.2879,-0.0652,0.129,2.9894,40.112623,-88.227375,6.0845,123.2096,730.693481,Running,High,98.5264,1.9289,0.9951,18.8672,-528.1645,-18.7898,-12.4321,-30.2734
01-Nov-2017 17:32:52.529,-0.2517,0.5683,0.2248,-0.1244,0.1327,-2.1074,-0.0652,0.129,2.9894,40.112634,-88.227345,5.9055,87.7249,731.437744,Running,High,98.5244,2.098,22.2273,15.7272,-555.9387,-18.7898,-12.4321,-30.2734
01-Nov-2017 17:32:53.530,-0.0342,0.7827,0.4592,0.1865,-0.2463,-0.1756,-0.0652,0.129,2.9894,40.112644,-88.227323,5.9055,87.3604,731.969604,Running,High,98.5248,2.061,-3.3015,24.0649,-535.8019,-18.7898,-12.4321,-30.2734
01-Nov-2017 17:32:54.532,-0.0966,-0.1596,-0.476,-1.0136,0.0681,-0.035,-0.0652,0.129,2.9894,40.112662,-88.227303,6.7332,88.758,733.083801,Running,High,98.5244,2.098,3.594,22.8524,-537.8107,-18.7898,-12.4321,-30.2734
01-Nov-2017 17:32:55.534,-0.2136,0.4041,0.1121,-0.0635,0.8091,-1.0967,-0.0652,0.129,2.9894,40.112684,-88.227288,6.7332,69.0853,733.815491,Running,High,98.5241,2.1191,18.1693,16.5841,-558.9775,-18.7898,-12.4321,-30.2734
01-Nov-2017 17:32:56.535,-0.6197,0.5631,0.5849,-0.4963,-2.4411,-0.3127,-0.0652,0.129,2.9894,40.112702,-88.227278,5.0331,61.0778,733.851135,Running,High,98.5233,2.1905,-12.5406,22.9183,-541.68,-18.7898,-12.4321,-30.2734
01-Nov-2017 17:32:57.537,0.3857,-0.1001,-0.197,-0.3245,-0.2777,0.6699,-0.0652,0.129,2.9894,40.112729,-88.227274,5.0331,72.6236,733.761841,Running,High,98.5241,2.1191,-5.286,24.0254,-549.5894,-18.7898,-12.4321,-30.2734
01-Nov-2017 17:32:58.539,-0.3675,0.2575,0.1696,-1.2076,-0.2205,-4.7201,-0.0652,0.129,2.9894,40.11276,-88.227272,6.5319,76.0428,733.212952,Running,High,98.5233,2.1905,19.2856,14.3388,-562.9105,-18.7898,-12.4321,-30.2734
01-Nov-2017 17:32:59.540,-0.2463,0.8159,0.6235,0.0669,0.154,-0.8599,-0.0652,0.129,2.9894,40.112784,-88.227272,4.6081,71.2189,734.325745,Running,High,98.5234,2.1773,-7.1423,25.8195,-541.7567,-18.7898,-12.4321,-30.2734
01-Nov-2017 17:33:00.542,0.3085,0.5243,-0.2597,-0.2738,0.3272,1.3037,-0.0652,0.129,2.9894,40.11281,-88.227266,7.7622,75.2474,733.462036,Running,High,98.5234,2.1773,-5.5734,24.8554,-544.403,-18.7898,-12.4321,-30.2734
01-Nov-2017 17:33:01.544,-0.3911,0.4194,0.4084,-1.3746,1.1266,-3.197,-0.0652,0.129,2.9894,40.112838,-88.227259,5.7937,71.1708,733.993713,Running,High,98.5231,2.2063,18.6113,11.5571,-563.1631,-18.7898,-12.4321,-30.2734
01-Nov-2017 17:33:02.545,-0.3978,1.4657,0.2967,2.7323,3.1869,0.7127,-0.0652,0.129,2.9894,40.112861,-88.227253,5.7937,67.862,734.352173,Running,High,98.522,2.2962,-7.9636,20.8624,-541.2834,-18.7898,-12.4321,-30.2734
01-Nov-2017 17:33:03.547,0.5599,2.2217,0.5288,1.8582,-2.7291,2.9649,-0.0652,0.129,2.9894,40.112887,-88.227246,5.7937,70.3351,734.26947,Running,High,98.5211,2.3728,-2.506,21.7291,-548.0589,-18.7898,-12.4321,-30.2734
01-Nov-2017 17:33:04.549,-0.1548,1.4545,0.6961,-3.4345,-0.4425,-2.0456,-0.0652,0.129,2.9894,40.112917,-88.22724,6.8227,57.5512,734.921875,Running,High,98.522,2.2962,9.3766,16.1149,-566.1256,-18.7898,-12.4321,-30.2734
01-Nov-2017 17:33:05.551,0.0931,1.7213,0.2412,0.7106,0.4436,1.374,-0.0652,0.129,2.9894,40.112943,-88.227234,6.8227,57.2569,735.293701,Running,High,98.5221,2.2882,1.5416,21.8412,-548.9839,-18.7898,-12.4321,-30.2734
01-Nov-2017 17:33:06.552,0.1803,0.0781,-0.1895,3.03,-0.0894,2.205,-0.0652,0.129,2.9894,40.112964,-88.227229,5.5924,60.9606,737.1474,Running,High,98.5233,2.1852,-2.8843,22.6988,-549.1703,-18.7898,-12.4321,-30.2734
01-Nov-2017 17:33:07.554,-0.222,0.9053,-0.0509,-2.864,-2.113,-2.8467,-0.0652,0.129,2.9894,40.112985,-88.227229,4.7423,58.6306,736.802002,Running,High,98.5235,2.172,10.8027,16.9543,-565.5253,-18.7898,-12.4321,-30.2734
01-Nov-2017 17:33:08.556,0.5335,2.0333,-0.4286,0.4856,4.5372,1.9302,-0.0652,0.129,2.9894,40.113004,-88.227232,4.7199,54.6773,736.779724,Running,High,98.5242,2.1165,0.3305,22.048,-553.3986,-18.7898,-12.4321,-30.2734
01-Nov-2017 17:33:09.557,-0.1225,-0.1986,0.2161,2.7745,-1.1232,2.9997,-0.0652,0.129,2.9894,40.113027,-88.22724,5.5252,56.7225,735.091858,Running,High,98.5247,2.0716,-3.8544,22.7676,-547.2131,-18.7898,-12.4321,-30.2734
01-Nov-2017 17:33:10.559,-0.6402,2.2623,0.7655,-2.9856,0.1122,-1.5706,-0.0652,0.129,2.9894,40.113053,-88.22725,6.7332,58.2951,737.782776,Running,High,98.5249,2.0504,4.5196,20.7309,-558.0161,-18.7898,-12.4321,-30.2734
01-Nov-2017 17:33:11.561,-0.17,0.9442,-0.3719,0.9495,-0.5594,0.4086,-0.0652,0.129,2.9894,40.113076,-88.227258,5.5252,55.7122,738.300842,Running,High,98.5249,2.0504,10.5181,18.8365,-558.9767,-18.7898,-12.4321,-30.2734
01-Nov-2017 17:33:12.562,-0.1619,0.2069,0.3861,1.8164,3.5436,-0.0044,-0.0652,0.129,2.9894,40.113097,-88.227262,5.3015,56.261,738.773193,Walking,High,98.5246,2.0795,-8.2775,22.7267,-546.4349,-18.7898,-12.4321,-30.2734
01-Nov-2017 17:33:13.564,-0.1128,0.4708,-0.1905,-0.4045,0.6522,0.7492,-0.0652,0.129,2.9894,40.113116,-88.22727,5.145,63.9922,740.642517,Walking,High,98.5221,2.2935,-0.9431,22.787,-552.7069,-18.7898,-12.4321,-30.2734
01-Nov-2017 17:33:14.565,-0.0631,0.6921,-0.4327,-0.6164,-0.013,-2.2938,-0.0652,0.129,2.9894,40.113134,-88.227273,4.2278,61.8727,741.51355,Walking,High,98.5211,2.3728,15.6889,16.1822,-561.2159,-18.7898,-12.4321,-30.2734
01-Nov-2017 17:33:15.567,-0.2165,0.2317,0.3882,1.3021,0.6572,0.2962,-0.0652,0.129,2.9894,40.113152,-88.227274,4.2726,63.5544,742.510193,Walking,High,98.5211,2.3728,-8.5726,22.7268,-544.483,-18.7898,-12.4321,-30.2734
01-Nov-2017 17:33:16.569,-0.2998,-0.4796,-0.3275,0.0475,-0.9151,1.3566,-0.0652,0.129,2.9894,40.113171,-88.227275,4.2726,71.0702,741.042786,Walking,High,98.5214,2.349,1.7649,22.6675,-549.5009,-18.7898,-12.4321,-30.2734
01-Nov-2017 17:33:17.571,-0.4144,0.6256,0.3443,-1.2886,1.7992,-3.0994,-0.0652,0.129,2.9894,40.113192,-88.227269,4.4291,61.7316,742.075073,Walking,High,98.5214,2.349,18.6815,13.2804,-564.7187,-18.7898,-12.4321,-30.2734
01-Nov-2017 17:33:18.572,-0.3008,0.8636,0.4747,2.5493,2.7676,-0.4311,-0.0652,0.129,2.9894,40.113211,-88.227263,4.4291,51.6627,742.260498,Walking,High,98.5208,2.4045,-6.8481,22.968,-544.6414,-18.7898,-12.4321,-30.2734
01-Nov-2017 17:33:19.574,0.2914,1.0709,0.2292,2.02,-2.0866,2.9587,-0.0652,0.129,2.9894,40.113231,-88.227259,4.6305,51.854,742.598083,Walking,High,98.5208,2.4045,-4.0948,23.5063,-553.2031,-18.7898,-12.4321,-30.2734
01-Nov-2017 17:33:20.575,0.0141,0.9132,0.3851,-2.6299,2.3049,-1.2537,-0.0652,0.129,2.9894,40.113252,-88.22726,4.7647,51.3923,742.409668,Walking,High,98.5204,2.4336,15.4442,13.8424,-569.5662,-18.7898,-12.4321,-30.2734
01-Nov-2017 17:33:21.577,-0.187,1.287,0.0942,-0.5619,1.7349,0.2796,-0.0652,0.129,2.9894,40.113274,-88.227261,4.6305,59.6615,741.383606,Walking,High,98.5197,2.497,-6.3262,23.9464,-545.6835,-18.7898,-12.4321,-30.2734
01-Nov-2017 17:33:22.581,0.0027,3.5897,0.8266,2.3777,-0.6725,2.4244,-0.0652,0.129,2.9894,40.113295,-88.227263,4.7423,66.3897,742.226624,Walking,High,98.5193,2.5234,-1.0906,23.6874,-551.4955,-18.7898,-12.4321,-30.2734
01-Nov-2017 17:33:23.581,-0.1807,1.0037,0.0112,-3.6434,0.5702,-2.2226,-0.0652,0.129,2.9894,40.113314,-88.227267,4.4291,68.8761,742.333557,Walking,High,98.5193,2.5234,17.932,15.8993,-564.0087,-18.7898,-12.4321,-30.2734
01-Nov-2017 17:33:24.582,-0.017,1.3,0.18,-0.0031,0.1484,1.7321,-0.0652,0.129,2.9894,40.113336,-88.227266,5.0779,64.818,743.034241,Walking,High,98.5173,2.6978,0.2065,23.4129,-542.7321,-18.7898,-12.4321,-30.2734
01-Nov-2017 17:33:25.585,0.5315,3.8078,1.087,2.9685,-0.2545,2.27,-0.0652,0.129,2.9894,40.113362,-88.227262,5.995,71.5261,743.669617,Walking,High,98.5182,2.6212,1.1704,23.3404,-547.1642,-18.7898,-12.4321,-30.2734
01-Nov-2017 17:33:26.586,0.0951,1.0387,-0.0179,-2.9923,-0.0038,-2.6732,-0.0652,0.129,2.9894,40.113388,-88.227256,5.6147,59.8154,743.527832,Walking,High,98.5172,2.7084,18.3008,13.9485,-566.8836,-18.7898,-12.4321,-30.2734
01-Nov-2017 17:33:27.587,-0.0695,1.6325,0.5426,0.4881,1.5617,1.8683,-0.0652,0.129,2.9894,40.113411,-88.227251,5.6147,64.8598,742.935547,Walking,High,98.5175,2.6846,6.3474,22.6405,-546.5309,-18.7898,-12.4321,-30.2734
01-Nov-2017 17:33:28.589,0.0761,0.3727,-0.3887,2.3625,-0.0198,2.3533,-0.0652,0.129,2.9894,40.113432,-88.227248,5.1002,62.5908,744.958435,Walking,High,98.5175,2.6846,-1.8331,24.9602,-548.2511,-18.7898,-12.4321,-30.2734
01-Nov-2017 17:33:29.591,-0.2223,1.497,0.6265,-2.5347,-1.2938,-2.3575,-0.0652,0.129,2.9894,40.113451,-88.227246,4.5186,61.1458,745.878174,Walking,High,98.5162,2.7903,14.7824,19.0956,-563.2015,-18.7898,-12.4321,-30.2734
01-Nov-2017 17:33:30.593,0.1476,2.043,0.1736,0.6804,-0.8296,1.7728,-0.0652,0.129,2.9894,40.113471,-88.227248,4.7647,56.0788,746.763855,Walking,High,98.5177,2.6608,1.8446,24.6967,-547.228,-18.7898,-12.4321,-30.2734
01-Nov-2017 17:33:31.594,-0.0463,0.2732,-0.1369,1.2388,-1.3057,2.0255,-0.0652,0.129,2.9894,40.113483,-88.227248,4.5186,64.2756,748.443909,Walking,High,98.5173,2.6952,1.091,24.8374,-548.6465,-18.7898,-12.4321,-30.2734
01-Nov-2017 17:33:32.596,-0.1362,1.1605,0.4353,-2.5553,0.0271,-2.1751,-0.0652,0.129,2.9894,40.113498,-88.227247,4.7647,64.8374,748.922302,Walking,High,98.5187,2.5789,12.6031,18.8472,-564.9902,-18.7898,-12.4321,-30.2734
01-Nov-2017 17:33:33.598,0.1145,1.9199,0.3609,0.4838,-0.2905,1.2949,-0.0652,0.129,2.9894,40.113519,-88.227247,5.0555,73.6901,748.369812,Walking,High,98.5173,2.6952,5.3,23.8325,-545.2355,-18.7898,-12.4321,-30.2734
01-Nov-2017 17:33:34.600,-0.1382,4.2225,1.2549,3.5037,-0.4744,2.4997,-0.0652,0.129,2.9894,40.113536,-88.227244,3.9146,92.6881,746.536743,Walking,High,98.5178,2.6582,-1.6713,25.0438,-543.5262,-18.7898,-12.4321,-30.2734
01-Nov-2017 17:33:35.601,-0.1972,1.3932,0.577,-2.3035,-1.7096,-2.1809,-0.0652,0.129,2.9894,40.113536,-88.227244,0,91.3978,746.927246,Walking,High,98.5178,2.6582,16.1476,18.7426,-557.2145,-18.7898,-12.4321,-30.2734
01-Nov-2017 17:33:36.603,0.5096,2.1343,0.1134,1.0649,-0.7059,0.815,-0.0652,0.129,2.9894,40.113544,-88.227231,3.9146,94.601,747.432251,Walking,High,98.5181,2.6344,7.1222,21.6875,-536.7969,-18.7898,-12.4321,-30.2734
01-Nov-2017 17:33:37.605,-0.1437,0.5038,-0.0341,1.0275,0.0196,1.5068,-0.0652,0.129,2.9894,40.113556,-88.227214,3.9146,95.7232,748.132324,Walking,High,98.5181,2.6344,4.7211,22.8643,-536.9929,-18.7898,-12.4321,-30.2734
01-Nov-2017 17:33:38.606,-0.112,0.9552,-0.2091,-2.0794,0.6636,-1.1288,-0.0652,0.129,2.9894,40.113567,-88.227198,3.9146,93.5978,748.886658,Walking,High,98.5173,2.7031,12.3435,21.8699,-548.2288,-18.7898,-12.4321,-30.2734
01-Nov-2017 17:33:39.608,0.3257,1.6323,0.1048,0.1942,-0.257,-1.5904,-0.0652,0.129,2.9894,40.113579,-88.227182,3.5567,73.8733,750.712524,Walking,High,98.5165,2.7639,14.1356,21.5071,-551.4696,-18.7898,-12.4321,-30.2734
01-Nov-2017 17:33:40.610,-0.1823,0.1451,0.1464,0.6913,0.5717,-0.2691,-0.0652,0.129,2.9894,40.113594,-88.227169,4.541,71.8332,750.683289,Walking,High,98.517,2.7269,2.6026,24.3336,-544.0872,-18.7898,-12.4321,-30.2734
